<?xml version="1.0" encoding="UTF-8"?>
<kml xmlns="http://www.opengis.net/kml/2.2">
<Document>
  <Style id="schengen_style">
    <IconStyle>
      <Icon><href>http://maps.google.com/mapfiles/ms/icons/blue-dot.png</href></Icon>
    </IconStyle>
  </Style>
  <Style id="no_schengen_style">
    <IconStyle>
      <Icon><href>http://maps.google.com/mapfiles/ms/icons/red-dot.png</href></Icon>
    </IconStyle>
  </Style>
  <Placemark>
    <name>BIKF</name>
    <styleUrl>#schengen_style</styleUrl>
    <Point>
      <coordinates>-2.4005555555555556,63.985,0</coordinates>
    </Point>
  </Placemark>
  <Placemark>
    <name>CYUL</name>
    <styleUrl>#no_schengen_style</styleUrl>
    <Point>
      <coordinates>-7.578333333333333,45.46805555555556,0</coordinates>
    </Point>
  </Placemark>
  <Placemark>
    <name>CYYZ</name>
    <styleUrl>#no_schengen_style</styleUrl>
    <Point>
      <coordinates>-8.570833333333335,43.67722222222222,0</coordinates>
    </Point>
  </Placemark>
  <Placemark>
    <name>DAAG</name>
    <styleUrl>#no_schengen_style</styleUrl>
    <Point>
      <coordinates>0.5236111111111111,36.693888888888885,0</coordinates>
    </Point>
  </Placemark>
  <Placemark>
    <name>DTTA</name>
    <styleUrl>#no_schengen_style</styleUrl>
    <Point>
      <coordinates>1.0258333333333334,36.85111111111111,0</coordinates>
    </Point>
  </Placemark>
  <Placemark>
    <name>EBAW</name>
    <styleUrl>#schengen_style</styleUrl>
    <Point>
      <coordinates>0.7202777777777777,51.18944444444444,0</coordinates>
    </Point>
  </Placemark>
  <Placemark>
    <name>EBBR</name>
    <styleUrl>#schengen_style</styleUrl>
    <Point>
      <coordinates>0.725,50.90138888888889,0</coordinates>
    </Point>
  </Placemark>
  <Placemark>
    <name>EBLG</name>
    <styleUrl>#schengen_style</styleUrl>
    <Point>
      <coordinates>0.8841666666666667,50.63638888888889,0</coordinates>
    </Point>
  </Placemark>
  <Placemark>
    <name>EBOS</name>
    <styleUrl>#schengen_style</styleUrl>
    <Point>
      <coordinates>0.42055555555555557,51.19888888888889,0</coordinates>
    </Point>
  </Placemark>
  <Placemark>
    <name>EDDB</name>
    <styleUrl>#schengen_style</styleUrl>
    <Point>
      <coordinates>1.55,52.36222222222222,0</coordinates>
    </Point>
  </Placemark>
  <Placemark>
    <name>EDDF</name>
    <styleUrl>#schengen_style</styleUrl>
    <Point>
      <coordinates>1.3947222222222222,50.03333333333333,0</coordinates>
    </Point>
  </Placemark>
  <Placemark>
    <name>EDDH</name>
    <styleUrl>#schengen_style</styleUrl>
    <Point>
      <coordinates>1.608611111111111,53.63027777777778,0</coordinates>
    </Point>
  </Placemark>
  <Placemark>
    <name>EDDK</name>
    <styleUrl>#schengen_style</styleUrl>
    <Point>
      <coordinates>1.1897222222222223,50.865833333333335,0</coordinates>
    </Point>
  </Placemark>
  <Placemark>
    <name>EDDL</name>
    <styleUrl>#schengen_style</styleUrl>
    <Point>
      <coordinates>1.0811111111111111,51.280833333333334,0</coordinates>
    </Point>
  </Placemark>
  <Placemark>
    <name>EDDM</name>
    <styleUrl>#schengen_style</styleUrl>
    <Point>
      <coordinates>1.2530555555555556,48.35388888888889,0</coordinates>
    </Point>
  </Placemark>
  <Placemark>
    <name>EDDN</name>
    <styleUrl>#schengen_style</styleUrl>
    <Point>
      <coordinates>1.1788888888888889,49.49861111111111,0</coordinates>
    </Point>
  </Placemark>
  <Placemark>
    <name>EDDP</name>
    <styleUrl>#schengen_style</styleUrl>
    <Point>
      <coordinates>1.361388888888889,51.42388888888889,0</coordinates>
    </Point>
  </Placemark>
  <Placemark>
    <name>EDDS</name>
    <styleUrl>#schengen_style</styleUrl>
    <Point>
      <coordinates>1.5252777777777777,48.69,0</coordinates>
    </Point>
  </Placemark>
  <Placemark>
    <name>EDDT</name>
    <styleUrl>#schengen_style</styleUrl>
    <Point>
      <coordinates>1.5363888888888888,52.55972222222222,0</coordinates>
    </Point>
  </Placemark>
  <Placemark>
    <name>EDDV</name>
    <styleUrl>#schengen_style</styleUrl>
    <Point>
      <coordinates>1.5694444444444444,52.46027777777778,0</coordinates>
    </Point>
  </Placemark>
  <Placemark>
    <name>EETN</name>
    <styleUrl>#schengen_style</styleUrl>
    <Point>
      <coordinates>2.7597222222222224,59.413333333333334,0</coordinates>
    </Point>
  </Placemark>
  <Placemark>
    <name>EFHK</name>
    <styleUrl>#schengen_style</styleUrl>
    <Point>
      <coordinates>2.7705555555555557,60.31722222222223,0</coordinates>
    </Point>
  </Placemark>
  <Placemark>
    <name>EGAA</name>
    <styleUrl>#no_schengen_style</styleUrl>
    <Point>
      <coordinates>-1.023611111111111,54.6575,0</coordinates>
    </Point>
  </Placemark>
  <Placemark>
    <name>EGBB</name>
    <styleUrl>#no_schengen_style</styleUrl>
    <Point>
      <coordinates>-0.24583333333333335,52.45388888888889,0</coordinates>
    </Point>
  </Placemark>
  <Placemark>
    <name>EGCC</name>
    <styleUrl>#no_schengen_style</styleUrl>
    <Point>
      <coordinates>-0.3675,53.35388888888889,0</coordinates>
    </Point>
  </Placemark>
  <Placemark>
    <name>EGFF</name>
    <styleUrl>#no_schengen_style</styleUrl>
    <Point>
      <coordinates>-0.5341666666666667,51.39666666666667,0</coordinates>
    </Point>
  </Placemark>
  <Placemark>
    <name>EGGD</name>
    <styleUrl>#no_schengen_style</styleUrl>
    <Point>
      <coordinates>-0.4083333333333334,51.382777777777775,0</coordinates>
    </Point>
  </Placemark>
  <Placemark>
    <name>EGGP</name>
    <styleUrl>#no_schengen_style</styleUrl>
    <Point>
      <coordinates>-0.41805555555555557,53.33361111111111,0</coordinates>
    </Point>
  </Placemark>
  <Placemark>
    <name>EGGW</name>
    <styleUrl>#no_schengen_style</styleUrl>
    <Point>
      <coordinates>-0.03888888888888889,51.874722222222225,0</coordinates>
    </Point>
  </Placemark>
  <Placemark>
    <name>EGHI</name>
    <styleUrl>#no_schengen_style</styleUrl>
    <Point>
      <coordinates>-0.20333333333333334,50.95027777777778,0</coordinates>
    </Point>
  </Placemark>
  <Placemark>
    <name>EGKK</name>
    <styleUrl>#no_schengen_style</styleUrl>
    <Point>
      <coordinates>-0.02,51.14805555555556,0</coordinates>
    </Point>
  </Placemark>
  <Placemark>
    <name>EGLL</name>
    <styleUrl>#no_schengen_style</styleUrl>
    <Point>
      <coordinates>-0.05388888888888889,51.4775,0</coordinates>
    </Point>
  </Placemark>
  <Placemark>
    <name>EGMC</name>
    <styleUrl>#no_schengen_style</styleUrl>
    <Point>
      <coordinates>0.07027777777777777,51.57027777777778,0</coordinates>
    </Point>
  </Placemark>
  <Placemark>
    <name>EGNM</name>
    <styleUrl>#no_schengen_style</styleUrl>
    <Point>
      <coordinates>-0.2425,53.86611111111111,0</coordinates>
    </Point>
  </Placemark>
  <Placemark>
    <name>EGNT</name>
    <styleUrl>#no_schengen_style</styleUrl>
    <Point>
      <coordinates>-0.23666666666666666,55.03805555555555,0</coordinates>
    </Point>
  </Placemark>
  <Placemark>
    <name>EGNX</name>
    <styleUrl>#no_schengen_style</styleUrl>
    <Point>
      <coordinates>-0.20944444444444443,52.83111111111111,0</coordinates>
    </Point>
  </Placemark>
  <Placemark>
    <name>EGPH</name>
    <styleUrl>#no_schengen_style</styleUrl>
    <Point>
      <coordinates>-0.5394444444444444,55.95,0</coordinates>
    </Point>
  </Placemark>
  <Placemark>
    <name>EGPK</name>
    <styleUrl>#no_schengen_style</styleUrl>
    <Point>
      <coordinates>-0.7316666666666667,55.50944444444445,0</coordinates>
    </Point>
  </Placemark>
  <Placemark>
    <name>EGSS</name>
    <styleUrl>#no_schengen_style</styleUrl>
    <Point>
      <coordinates>0.027777777777777776,51.885,0</coordinates>
    </Point>
  </Placemark>
  <Placemark>
    <name>EHAM</name>
    <styleUrl>#schengen_style</styleUrl>
    <Point>
      <coordinates>0.748611111111111,52.308055555555555,0</coordinates>
    </Point>
  </Placemark>
  <Placemark>
    <name>EHEH</name>
    <styleUrl>#schengen_style</styleUrl>
    <Point>
      <coordinates>0.8727777777777778,51.45,0</coordinates>
    </Point>
  </Placemark>
  <Placemark>
    <name>EHRD</name>
    <styleUrl>#schengen_style</styleUrl>
    <Point>
      <coordinates>0.7169444444444444,51.956944444444446,0</coordinates>
    </Point>
  </Placemark>
  <Placemark>
    <name>EIDW</name>
    <styleUrl>#no_schengen_style</styleUrl>
    <Point>
      <coordinates>-1.033611111111111,53.421388888888885,0</coordinates>
    </Point>
  </Placemark>
  <Placemark>
    <name>EKBI</name>
    <styleUrl>#schengen_style</styleUrl>
    <Point>
      <coordinates>1.525,55.74027777777778,0</coordinates>
    </Point>
  </Placemark>
  <Placemark>
    <name>EKCH</name>
    <styleUrl>#schengen_style</styleUrl>
    <Point>
      <coordinates>1.4088888888888889,55.61805555555556,0</coordinates>
    </Point>
  </Placemark>
  <Placemark>
    <name>ELLX</name>
    <styleUrl>#schengen_style</styleUrl>
    <Point>
      <coordinates>1.0225,49.623333333333335,0</coordinates>
    </Point>
  </Placemark>
  <Placemark>
    <name>ENBR</name>
    <styleUrl>#schengen_style</styleUrl>
    <Point>
      <coordinates>0.8583333333333333,60.29361111111111,0</coordinates>
    </Point>
  </Placemark>
  <Placemark>
    <name>ENGM</name>
    <styleUrl>#schengen_style</styleUrl>
    <Point>
      <coordinates>1.1805555555555556,60.20277777777778,0</coordinates>
    </Point>
  </Placemark>
  <Placemark>
    <name>EPKK</name>
    <styleUrl>#schengen_style</styleUrl>
    <Point>
      <coordinates>2.586111111111111,50.07777777777778,0</coordinates>
    </Point>
  </Placemark>
  <Placemark>
    <name>EPKT</name>
    <styleUrl>#schengen_style</styleUrl>
    <Point>
      <coordinates>2.5122222222222224,50.47416666666667,0</coordinates>
    </Point>
  </Placemark>
  <Placemark>
    <name>EPWA</name>
    <styleUrl>#schengen_style</styleUrl>
    <Point>
      <coordinates>2.1055555555555556,52.16583333333333,0</coordinates>
    </Point>
  </Placemark>
  <Placemark>
    <name>ESGG</name>
    <styleUrl>#schengen_style</styleUrl>
    <Point>
      <coordinates>1.37,57.66,0</coordinates>
    </Point>
  </Placemark>
  <Placemark>
    <name>ESKN</name>
    <styleUrl>#schengen_style</styleUrl>
    <Point>
      <coordinates>2.094722222222222,58.78861111111111,0</coordinates>
    </Point>
  </Placemark>
  <Placemark>
    <name>ESSA</name>
    <styleUrl>#schengen_style</styleUrl>
    <Point>
      <coordinates>2.263888888888889,59.651944444444446,0</coordinates>
    </Point>
  </Placemark>
  <Placemark>
    <name>ETNL</name>
    <styleUrl>#no_schengen_style</styleUrl>
    <Point>
      <coordinates>1.3677777777777778,53.91916666666666,0</coordinates>
    </Point>
  </Placemark>
  <Placemark>
    <name>EVRA</name>
    <styleUrl>#schengen_style</styleUrl>
    <Point>
      <coordinates>2.6058333333333334,56.92361111111111,0</coordinates>
    </Point>
  </Placemark>
  <Placemark>
    <name>EYVI</name>
    <styleUrl>#schengen_style</styleUrl>
    <Point>
      <coordinates>2.8697222222222223,54.636944444444445,0</coordinates>
    </Point>
  </Placemark>
  <Placemark>
    <name>GCFV</name>
    <styleUrl>#no_schengen_style</styleUrl>
    <Point>
      <coordinates>-1.5875000000000001,28.452777777777776,0</coordinates>
    </Point>
  </Placemark>
  <Placemark>
    <name>GCLP</name>
    <styleUrl>#no_schengen_style</styleUrl>
    <Point>
      <coordinates>-1.8752777777777778,27.931944444444447,0</coordinates>
    </Point>
  </Placemark>
  <Placemark>
    <name>GCRR</name>
    <styleUrl>#no_schengen_style</styleUrl>
    <Point>
      <coordinates>-1.5669444444444445,28.945555555555554,0</coordinates>
    </Point>
  </Placemark>
  <Placemark>
    <name>GCXO</name>
    <styleUrl>#no_schengen_style</styleUrl>
    <Point>
      <coordinates>-2.0341666666666667,28.482777777777777,0</coordinates>
    </Point>
  </Placemark>
  <Placemark>
    <name>GMFF</name>
    <styleUrl>#no_schengen_style</styleUrl>
    <Point>
      <coordinates>-0.7733333333333333,33.92722222222222,0</coordinates>
    </Point>
  </Placemark>
  <Placemark>
    <name>GMMN</name>
    <styleUrl>#no_schengen_style</styleUrl>
    <Point>
      <coordinates>-1.2291666666666665,33.36416666666667,0</coordinates>
    </Point>
  </Placemark>
  <Placemark>
    <name>GMMX</name>
    <styleUrl>#no_schengen_style</styleUrl>
    <Point>
      <coordinates>-1.3394444444444444,31.608611111111113,0</coordinates>
    </Point>
  </Placemark>
  <Placemark>
    <name>GMTT</name>
    <styleUrl>#no_schengen_style</styleUrl>
    <Point>
      <coordinates>-0.9308333333333333,35.73166666666667,0</coordinates>
    </Point>
  </Placemark>
  <Placemark>
    <name>HECA</name>
    <styleUrl>#no_schengen_style</styleUrl>
    <Point>
      <coordinates>3.2125000000000004,30.11138888888889,0</coordinates>
    </Point>
  </Placemark>
  <Placemark>
    <name>HTDA</name>
    <styleUrl>#no_schengen_style</styleUrl>
    <Point>
      <coordinates>4.5225,-6.875555555555556,0</coordinates>
    </Point>
  </Placemark>
  <Placemark>
    <name>KATL</name>
    <styleUrl>#no_schengen_style</styleUrl>
    <Point>
      <coordinates>-8.716666666666667,33.63333333333333,0</coordinates>
    </Point>
  </Placemark>
  <Placemark>
    <name>KCLT</name>
    <styleUrl>#no_schengen_style</styleUrl>
    <Point>
      <coordinates>-8.102777777777778,35.21666666666667,0</coordinates>
    </Point>
  </Placemark>
  <Placemark>
    <name>KEWR</name>
    <styleUrl>#no_schengen_style</styleUrl>
    <Point>
      <coordinates>-7.683333333333334,40.696666666666665,0</coordinates>
    </Point>
  </Placemark>
  <Placemark>
    <name>KIAD</name>
    <styleUrl>#no_schengen_style</styleUrl>
    <Point>
      <coordinates>-8.219999999999999,38.94499999999999,0</coordinates>
    </Point>
  </Placemark>
  <Placemark>
    <name>KJFK</name>
    <styleUrl>#no_schengen_style</styleUrl>
    <Point>
      <coordinates>-7.584444444444444,40.640277777777776,0</coordinates>
    </Point>
  </Placemark>
  <Placemark>
    <name>KMIA</name>
    <styleUrl>#no_schengen_style</styleUrl>
    <Point>
      <coordinates>-8.036111111111111,25.8,0</coordinates>
    </Point>
  </Placemark>
  <Placemark>
    <name>KPHL</name>
    <styleUrl>#no_schengen_style</styleUrl>
    <Point>
      <coordinates>-7.862222222222222,39.87,0</coordinates>
    </Point>
  </Placemark>
  <Placemark>
    <name>KUGN</name>
    <styleUrl>#no_schengen_style</styleUrl>
    <Point>
      <coordinates>-9.255555555555556,42.42166666666667,0</coordinates>
    </Point>
  </Placemark>
  <Placemark>
    <name>LBSF</name>
    <styleUrl>#no_schengen_style</styleUrl>
    <Point>
      <coordinates>2.5452777777777778,42.69499999999999,0</coordinates>
    </Point>
  </Placemark>
  <Placemark>
    <name>LCLK</name>
    <styleUrl>#schengen_style</styleUrl>
    <Point>
      <coordinates>3.5705555555555555,34.87888888888889,0</coordinates>
    </Point>
  </Placemark>
  <Placemark>
    <name>LDDU</name>
    <styleUrl>#no_schengen_style</styleUrl>
    <Point>
      <coordinates>2.3666666666666667,42.561388888888885,0</coordinates>
    </Point>
  </Placemark>
  <Placemark>
    <name>LDSP</name>
    <styleUrl>#no_schengen_style</styleUrl>
    <Point>
      <coordinates>2.0375,43.538888888888884,0</coordinates>
    </Point>
  </Placemark>
  <Placemark>
    <name>LDZA</name>
    <styleUrl>#no_schengen_style</styleUrl>
    <Point>
      <coordinates>2.011111111111111,45.74305555555556,0</coordinates>
    </Point>
  </Placemark>
  <Placemark>
    <name>LEAL</name>
    <styleUrl>#schengen_style</styleUrl>
    <Point>
      <coordinates>-0.05888888888888889,38.282222222222224,0</coordinates>
    </Point>
  </Placemark>
  <Placemark>
    <name>LEAM</name>
    <styleUrl>#schengen_style</styleUrl>
    <Point>
      <coordinates>-0.3725,36.84388888888889,0</coordinates>
    </Point>
  </Placemark>
  <Placemark>
    <name>LEAS</name>
    <styleUrl>#schengen_style</styleUrl>
    <Point>
      <coordinates>-1.0055555555555555,43.56361111111111,0</coordinates>
    </Point>
  </Placemark>
  <Placemark>
    <name>LEBB</name>
    <styleUrl>#schengen_style</styleUrl>
    <Point>
      <coordinates>-0.4286111111111111,43.301111111111105,0</coordinates>
    </Point>
  </Placemark>
  <Placemark>
    <name>LEBL</name>
    <styleUrl>#schengen_style</styleUrl>
    <Point>
      <coordinates>0.34555555555555556,41.29694444444444,0</coordinates>
    </Point>
  </Placemark>
  <Placemark>
    <name>LEBZ</name>
    <styleUrl>#schengen_style</styleUrl>
    <Point>
      <coordinates>-1.0919444444444444,38.89138888888889,0</coordinates>
    </Point>
  </Placemark>
  <Placemark>
    <name>LECO</name>
    <styleUrl>#schengen_style</styleUrl>
    <Point>
      <coordinates>-1.3730555555555557,43.301944444444445,0</coordinates>
    </Point>
  </Placemark>
  <Placemark>
    <name>LEGE</name>
    <styleUrl>#schengen_style</styleUrl>
    <Point>
      <coordinates>0.41472222222222227,41.90083333333333,0</coordinates>
    </Point>
  </Placemark>
  <Placemark>
    <name>LEGR</name>
    <styleUrl>#schengen_style</styleUrl>
    <Point>
      <coordinates>-0.5841666666666666,37.18861111111111,0</coordinates>
    </Point>
  </Placemark>
  <Placemark>
    <name>LEIB</name>
    <styleUrl>#schengen_style</styleUrl>
    <Point>
      <coordinates>0.20611111111111113,38.87277777777778,0</coordinates>
    </Point>
  </Placemark>
  <Placemark>
    <name>LEJR</name>
    <styleUrl>#schengen_style</styleUrl>
    <Point>
      <coordinates>-1.0091666666666668,36.74472222222222,0</coordinates>
    </Point>
  </Placemark>
  <Placemark>
    <name>LELN</name>
    <styleUrl>#schengen_style</styleUrl>
    <Point>
      <coordinates>-0.9088888888888889,42.58861111111111,0</coordinates>
    </Point>
  </Placemark>
  <Placemark>
    <name>LEMD</name>
    <styleUrl>#schengen_style</styleUrl>
    <Point>
      <coordinates>-0.5591666666666667,40.47222222222222,0</coordinates>
    </Point>
  </Placemark>
  <Placemark>
    <name>LEMG</name>
    <styleUrl>#schengen_style</styleUrl>
    <Point>
      <coordinates>-0.7263888888888889,36.675,0</coordinates>
    </Point>
  </Placemark>
  <Placemark>
    <name>LEMH</name>
    <styleUrl>#schengen_style</styleUrl>
    <Point>
      <coordinates>0.6916666666666667,39.862500000000004,0</coordinates>
    </Point>
  </Placemark>
  <Placemark>
    <name>LEPA</name>
    <styleUrl>#schengen_style</styleUrl>
    <Point>
      <coordinates>0.4116666666666667,39.55166666666666,0</coordinates>
    </Point>
  </Placemark>
  <Placemark>
    <name>LESO</name>
    <styleUrl>#schengen_style</styleUrl>
    <Point>
      <coordinates>-0.25333333333333335,43.35638888888889,0</coordinates>
    </Point>
  </Placemark>
  <Placemark>
    <name>LEST</name>
    <styleUrl>#schengen_style</styleUrl>
    <Point>
      <coordinates>-1.3791666666666667,42.896388888888886,0</coordinates>
    </Point>
  </Placemark>
  <Placemark>
    <name>LEVC</name>
    <styleUrl>#schengen_style</styleUrl>
    <Point>
      <coordinates>-0.05694444444444444,39.489444444444445,0</coordinates>
    </Point>
  </Placemark>
  <Placemark>
    <name>LEVD</name>
    <styleUrl>#schengen_style</styleUrl>
    <Point>
      <coordinates>-0.7527777777777778,41.70611111111111,0</coordinates>
    </Point>
  </Placemark>
  <Placemark>
    <name>LEVX</name>
    <styleUrl>#schengen_style</styleUrl>
    <Point>
      <coordinates>-1.4036111111111111,42.22916666666667,0</coordinates>
    </Point>
  </Placemark>
  <Placemark>
    <name>LEXJ</name>
    <styleUrl>#schengen_style</styleUrl>
    <Point>
      <coordinates>-0.5919444444444444,43.426944444444445,0</coordinates>
    </Point>
  </Placemark>
  <Placemark>
    <name>LEZL</name>
    <styleUrl>#schengen_style</styleUrl>
    <Point>
      <coordinates>-0.9263888888888888,37.418055555555554,0</coordinates>
    </Point>
  </Placemark>
  <Placemark>
    <name>LFBD</name>
    <styleUrl>#schengen_style</styleUrl>
    <Point>
      <coordinates>-0.07361111111111111,44.828611111111115,0</coordinates>
    </Point>
  </Placemark>
  <Placemark>
    <name>LFBT</name>
    <styleUrl>#schengen_style</styleUrl>
    <Point>
      <coordinates>-0.0002777777777777778,43.18555555555555,0</coordinates>
    </Point>
  </Placemark>
  <Placemark>
    <name>LFCK</name>
    <styleUrl>#schengen_style</styleUrl>
    <Point>
      <coordinates>0.37,43.555,0</coordinates>
    </Point>
  </Placemark>
  <Placemark>
    <name>LFLL</name>
    <styleUrl>#schengen_style</styleUrl>
    <Point>
      <coordinates>0.8458333333333333,45.72555555555556,0</coordinates>
    </Point>
  </Placemark>
  <Placemark>
    <name>LFMD</name>
    <styleUrl>#schengen_style</styleUrl>
    <Point>
      <coordinates>1.1030555555555555,43.546388888888885,0</coordinates>
    </Point>
  </Placemark>
  <Placemark>
    <name>LFML</name>
    <styleUrl>#schengen_style</styleUrl>
    <Point>
      <coordinates>0.8569444444444444,43.43666666666666,0</coordinates>
    </Point>
  </Placemark>
  <Placemark>
    <name>LFMN</name>
    <styleUrl>#schengen_style</styleUrl>
    <Point>
      <coordinates>1.1902777777777778,43.665277777777774,0</coordinates>
    </Point>
  </Placemark>
  <Placemark>
    <name>LFOB</name>
    <styleUrl>#schengen_style</styleUrl>
    <Point>
      <coordinates>0.3511111111111111,49.45444444444445,0</coordinates>
    </Point>
  </Placemark>
  <Placemark>
    <name>LFPG</name>
    <styleUrl>#schengen_style</styleUrl>
    <Point>
      <coordinates>0.3902777777777778,49.00972222222222,0</coordinates>
    </Point>
  </Placemark>
  <Placemark>
    <name>LFPO</name>
    <styleUrl>#schengen_style</styleUrl>
    <Point>
      <coordinates>0.3733333333333333,48.723333333333336,0</coordinates>
    </Point>
  </Placemark>
  <Placemark>
    <name>LFQQ</name>
    <styleUrl>#schengen_style</styleUrl>
    <Point>
      <coordinates>0.5141666666666667,50.56333333333333,0</coordinates>
    </Point>
  </Placemark>
  <Placemark>
    <name>LFRN</name>
    <styleUrl>#schengen_style</styleUrl>
    <Point>
      <coordinates>-0.24305555555555555,48.07194444444445,0</coordinates>
    </Point>
  </Placemark>
  <Placemark>
    <name>LFRS</name>
    <styleUrl>#schengen_style</styleUrl>
    <Point>
      <coordinates>-0.2338888888888889,47.15694444444444,0</coordinates>
    </Point>
  </Placemark>
  <Placemark>
    <name>LFSB</name>
    <styleUrl>#schengen_style</styleUrl>
    <Point>
      <coordinates>1.2205555555555554,47.59,0</coordinates>
    </Point>
  </Placemark>
  <Placemark>
    <name>LFST</name>
    <styleUrl>#schengen_style</styleUrl>
    <Point>
      <coordinates>1.2388888888888887,48.54194444444444,0</coordinates>
    </Point>
  </Placemark>
  <Placemark>
    <name>LGAV</name>
    <styleUrl>#schengen_style</styleUrl>
    <Point>
      <coordinates>2.6011111111111114,37.93666666666666,0</coordinates>
    </Point>
  </Placemark>
  <Placemark>
    <name>LGIR</name>
    <styleUrl>#schengen_style</styleUrl>
    <Point>
      <coordinates>2.8511111111111114,35.33972222222222,0</coordinates>
    </Point>
  </Placemark>
  <Placemark>
    <name>LGKR</name>
    <styleUrl>#schengen_style</styleUrl>
    <Point>
      <coordinates>2.5955555555555554,39.60194444444445,0</coordinates>
    </Point>
  </Placemark>
  <Placemark>
    <name>LGMK</name>
    <styleUrl>#schengen_style</styleUrl>
    <Point>
      <coordinates>2.868055555555556,37.43722222222222,0</coordinates>
    </Point>
  </Placemark>
  <Placemark>
    <name>LGSR</name>
    <styleUrl>#schengen_style</styleUrl>
    <Point>
      <coordinates>2.89,36.399166666666666,0</coordinates>
    </Point>
  </Placemark>
  <Placemark>
    <name>LGTS</name>
    <styleUrl>#schengen_style</styleUrl>
    <Point>
      <coordinates>2.4391666666666665,40.51972222222222,0</coordinates>
    </Point>
  </Placemark>
  <Placemark>
    <name>LHBP</name>
    <styleUrl>#schengen_style</styleUrl>
    <Point>
      <coordinates>2.5316666666666667,47.43944444444444,0</coordinates>
    </Point>
  </Placemark>
  <Placemark>
    <name>LIBD</name>
    <styleUrl>#schengen_style</styleUrl>
    <Point>
      <coordinates>2.0819444444444444,41.13805555555555,0</coordinates>
    </Point>
  </Placemark>
  <Placemark>
    <name>LICJ</name>
    <styleUrl>#schengen_style</styleUrl>
    <Point>
      <coordinates>1.5152777777777777,38.18194444444444,0</coordinates>
    </Point>
  </Placemark>
  <Placemark>
    <name>LIEE</name>
    <styleUrl>#schengen_style</styleUrl>
    <Point>
      <coordinates>1.508888888888889,39.24722222222222,0</coordinates>
    </Point>
  </Placemark>
  <Placemark>
    <name>LIEO</name>
    <styleUrl>#schengen_style</styleUrl>
    <Point>
      <coordinates>1.5527777777777778,40.89861111111111,0</coordinates>
    </Point>
  </Placemark>
  <Placemark>
    <name>LIMC</name>
    <styleUrl>#schengen_style</styleUrl>
    <Point>
      <coordinates>1.4088888888888889,45.63,0</coordinates>
    </Point>
  </Placemark>
  <Placemark>
    <name>LIME</name>
    <styleUrl>#schengen_style</styleUrl>
    <Point>
      <coordinates>1.5722222222222222,45.66888888888889,0</coordinates>
    </Point>
  </Placemark>
  <Placemark>
    <name>LIMF</name>
    <styleUrl>#schengen_style</styleUrl>
    <Point>
      <coordinates>1.2402777777777776,45.2025,0</coordinates>
    </Point>
  </Placemark>
  <Placemark>
    <name>LIML</name>
    <styleUrl>#schengen_style</styleUrl>
    <Point>
      <coordinates>1.5344444444444443,45.44944444444444,0</coordinates>
    </Point>
  </Placemark>
  <Placemark>
    <name>LIPE</name>
    <styleUrl>#schengen_style</styleUrl>
    <Point>
      <coordinates>1.203888888888889,44.530833333333334,0</coordinates>
    </Point>
  </Placemark>
  <Placemark>
    <name>LIPH</name>
    <styleUrl>#schengen_style</styleUrl>
    <Point>
      <coordinates>1.3541666666666667,45.65083333333333,0</coordinates>
    </Point>
  </Placemark>
  <Placemark>
    <name>LIPX</name>
    <styleUrl>#schengen_style</styleUrl>
    <Point>
      <coordinates>1.0919444444444444,45.396388888888886,0</coordinates>
    </Point>
  </Placemark>
  <Placemark>
    <name>LIPZ</name>
    <styleUrl>#schengen_style</styleUrl>
    <Point>
      <coordinates>1.3694444444444445,45.50527777777778,0</coordinates>
    </Point>
  </Placemark>
  <Placemark>
    <name>LIRF</name>
    <styleUrl>#schengen_style</styleUrl>
    <Point>
      <coordinates>1.3616666666666668,41.80027777777777,0</coordinates>
    </Point>
  </Placemark>
  <Placemark>
    <name>LIRN</name>
    <styleUrl>#schengen_style</styleUrl>
    <Point>
      <coordinates>1.7033333333333334,40.88444444444444,0</coordinates>
    </Point>
  </Placemark>
  <Placemark>
    <name>LIRP</name>
    <styleUrl>#schengen_style</styleUrl>
    <Point>
      <coordinates>1.0427777777777778,43.68277777777777,0</coordinates>
    </Point>
  </Placemark>
  <Placemark>
    <name>LIRQ</name>
    <styleUrl>#schengen_style</styleUrl>
    <Point>
      <coordinates>1.1891666666666667,43.808611111111105,0</coordinates>
    </Point>
  </Placemark>
  <Placemark>
    <name>LKPR</name>
    <styleUrl>#schengen_style</styleUrl>
    <Point>
      <coordinates>1.6980555555555557,50.100833333333334,0</coordinates>
    </Point>
  </Placemark>
  <Placemark>
    <name>LLBG</name>
    <styleUrl>#no_schengen_style</styleUrl>
    <Point>
      <coordinates>3.7583333333333333,32.00944444444445,0</coordinates>
    </Point>
  </Placemark>
  <Placemark>
    <name>LMML</name>
    <styleUrl>#schengen_style</styleUrl>
    <Point>
      <coordinates>1.7230555555555556,35.8575,0</coordinates>
    </Point>
  </Placemark>
  <Placemark>
    <name>LOWW</name>
    <styleUrl>#schengen_style</styleUrl>
    <Point>
      <coordinates>2.0613888888888887,48.11027777777778,0</coordinates>
    </Point>
  </Placemark>
  <Placemark>
    <name>LPPR</name>
    <styleUrl>#schengen_style</styleUrl>
    <Point>
      <coordinates>-1.401111111111111,41.23555555555556,0</coordinates>
    </Point>
  </Placemark>
  <Placemark>
    <name>LPPT</name>
    <styleUrl>#schengen_style</styleUrl>
    <Point>
      <coordinates>-1.5222222222222221,38.774166666666666,0</coordinates>
    </Point>
  </Placemark>
  <Placemark>
    <name>LRCL</name>
    <styleUrl>#no_schengen_style</styleUrl>
    <Point>
      <coordinates>2.5702777777777777,46.78916666666667,0</coordinates>
    </Point>
  </Placemark>
  <Placemark>
    <name>LROP</name>
    <styleUrl>#no_schengen_style</styleUrl>
    <Point>
      <coordinates>3.013888888888889,44.571111111111115,0</coordinates>
    </Point>
  </Placemark>
  <Placemark>
    <name>LSGG</name>
    <styleUrl>#schengen_style</styleUrl>
    <Point>
      <coordinates>1.0175,46.23833333333334,0</coordinates>
    </Point>
  </Placemark>
  <Placemark>
    <name>LSZG</name>
    <styleUrl>#schengen_style</styleUrl>
    <Point>
      <coordinates>1.2125,47.18138888888889,0</coordinates>
    </Point>
  </Placemark>
  <Placemark>
    <name>LSZH</name>
    <styleUrl>#schengen_style</styleUrl>
    <Point>
      <coordinates>1.3902777777777777,47.45805555555556,0</coordinates>
    </Point>
  </Placemark>
  <Placemark>
    <name>LTBA</name>
    <styleUrl>#no_schengen_style</styleUrl>
    <Point>
      <coordinates>3.423611111111111,40.976111111111116,0</coordinates>
    </Point>
  </Placemark>
  <Placemark>
    <name>LTFJ</name>
    <styleUrl>#no_schengen_style</styleUrl>
    <Point>
      <coordinates>3.539722222222222,40.89833333333333,0</coordinates>
    </Point>
  </Placemark>
  <Placemark>
    <name>LUKK</name>
    <styleUrl>#no_schengen_style</styleUrl>
    <Point>
      <coordinates>3.431944444444445,46.92777777777778,0</coordinates>
    </Point>
  </Placemark>
  <Placemark>
    <name>LWSK</name>
    <styleUrl>#no_schengen_style</styleUrl>
    <Point>
      <coordinates>2.236388888888889,41.961666666666666,0</coordinates>
    </Point>
  </Placemark>
  <Placemark>
    <name>LYBE</name>
    <styleUrl>#no_schengen_style</styleUrl>
    <Point>
      <coordinates>2.0394444444444444,44.81944444444445,0</coordinates>
    </Point>
  </Placemark>
  <Placemark>
    <name>LYTV</name>
    <styleUrl>#no_schengen_style</styleUrl>
    <Point>
      <coordinates>2.408888888888889,42.40472222222222,0</coordinates>
    </Point>
  </Placemark>
  <Placemark>
    <name>OLBA</name>
    <styleUrl>#no_schengen_style</styleUrl>
    <Point>
      <coordinates>3.8922222222222222,33.81916666666667,0</coordinates>
    </Point>
  </Placemark>
  <Placemark>
    <name>OMAA</name>
    <styleUrl>#no_schengen_style</styleUrl>
    <Point>
      <coordinates>5.741666666666667,24.433333333333334,0</coordinates>
    </Point>
  </Placemark>
  <Placemark>
    <name>OMDB</name>
    <styleUrl>#no_schengen_style</styleUrl>
    <Point>
      <coordinates>5.870277777777778,25.249166666666667,0</coordinates>
    </Point>
  </Placemark>
  <Placemark>
    <name>OTHH</name>
    <styleUrl>#no_schengen_style</styleUrl>
    <Point>
      <coordinates>5.234166666666667,25.274444444444445,0</coordinates>
    </Point>
  </Placemark>
  <Placemark>
    <name>SAEZ</name>
    <styleUrl>#no_schengen_style</styleUrl>
    <Point>
      <coordinates>-6.388888888888888,-34.82222222222222,0</coordinates>
    </Point>
  </Placemark>
  <Placemark>
    <name>SBGR</name>
    <styleUrl>#no_schengen_style</styleUrl>
    <Point>
      <coordinates>-5.055833333333333,-23.433333333333334,0</coordinates>
    </Point>
  </Placemark>
  <Placemark>
    <name>SKBO</name>
    <styleUrl>#no_schengen_style</styleUrl>
    <Point>
      <coordinates>-7.691666666666667,4.7,0</coordinates>
    </Point>
  </Placemark>
  <Placemark>
    <name>UKBB</name>
    <styleUrl>#no_schengen_style</styleUrl>
    <Point>
      <coordinates>3.0925000000000002,50.344722222222224,0</coordinates>
    </Point>
  </Placemark>
  <Placemark>
    <name>UKKK</name>
    <styleUrl>#no_schengen_style</styleUrl>
    <Point>
      <coordinates>3.0527777777777776,50.401944444444446,0</coordinates>
    </Point>
  </Placemark>
  <Placemark>
    <name>ULLI</name>
    <styleUrl>#no_schengen_style</styleUrl>
    <Point>
      <coordinates>3.0316666666666667,59.80027777777777,0</coordinates>
    </Point>
  </Placemark>
  <Placemark>
    <name>URKK</name>
    <styleUrl>#no_schengen_style</styleUrl>
    <Point>
      <coordinates>4.516944444444444,45.03472222222222,0</coordinates>
    </Point>
  </Placemark>
  <Placemark>
    <name>UUDD</name>
    <styleUrl>#no_schengen_style</styleUrl>
    <Point>
      <coordinates>4.261666666666667,55.40861111111111,0</coordinates>
    </Point>
  </Placemark>
  <Placemark>
    <name>UUEE</name>
    <styleUrl>#no_schengen_style</styleUrl>
    <Point>
      <coordinates>4.2122222222222225,55.972500000000004,0</coordinates>
    </Point>
  </Placemark>
  <Placemark>
    <name>UWKD</name>
    <styleUrl>#no_schengen_style</styleUrl>
    <Point>
      <coordinates>5.5344444444444445,55.606944444444444,0</coordinates>
    </Point>
  </Placemark>
  <Placemark>
    <name>WSSS</name>
    <styleUrl>#no_schengen_style</styleUrl>
    <Point>
      <coordinates>10.60888888888889,1.3591666666666669,0</coordinates>
    </Point>
  </Placemark>
</Document>
</kml>